[{
	"name": "济南热电有限公司",
	"Longitude": 116.990288003829,
	"Latitude": 36.6527347900166,
	"economize": "山东省",
	"City": "济南市",
	"County": "天桥区",
	"type": "电力",
	"code": 4412
}, {
	"name": "济南东新热电有限公司",
	"Longitude": 117.102019142549,
	"Latitude": 36.6819524669652,
	"economize": "山东省",
	"City": "济南市",
	"County": "历下区",
	"type": "电力",
	"code": 4412
}, {
	"name": "华能济南黄台发电有限公司",
	"Longitude": 117.09669320381,
	"Latitude": 36.7126435471132,
	"economize": "山东省",
	"City": "济南市",
	"County": "历城区",
	"type": "电力",
	"code": 4412
}, {
	"name": "华电章丘发电有限公司",
	"Longitude": 117.414409602918,
	"Latitude": 36.7327025757708,
	"economize": "山东省",
	"City": "济南市",
	"County": "章丘区",
	"type": "电力",
	"code": 4412
}, {
	"name": "济南兴泉能源有限公司",
	"Longitude": 117.120000302204,
	"Latitude": 36.6502000116589,
	"economize": "山东省",
	"City": "济南市",
	"County": "章丘区",
	"type": "电力",
	"code": 4412
}, {
	"name": "山东新升实业发展有限责任公司",
	"Longitude": 117.46826384338,
	"Latitude": 36.6406199612361,
	"economize": "山东省",
	"City": "济南市",
	"County": "章丘区",
	"type": "电力",
	"code": 4413
}, {
	"name": "济南市琦泉热电有限责任公司",
	"Longitude": 116.443063491419,
	"Latitude": 36.2790641104585,
	"economize": "山东省",
	"City": "济南市",
	"County": "平阴县",
	"type": "电力",
	"code": 4412
}, {
	"name": "济阳新华能源实业有限责任公司",
	"Longitude": 117.171864215092,
	"Latitude": 36.9480952445816,
	"economize": "山东省",
	"City": "济南市",
	"County": "济阳区",
	"type": "电力",
	"code": 4411
}, {
	"name": "华电国际电力股份有限公司莱城发电厂",
	"Longitude": 117.659999850619,
	"Latitude": 36.2031998763312,
	"economize": "山东省",
	"City": "济南市",
	"County": "莱芜区",
	"type": "电力",
	"code": 4412
}, {
	"name": "华能莱芜发电有限公司",
	"Longitude": 117.690322548255,
	"Latitude": 36.1377849440494,
	"economize": "山东省",
	"City": "济南市",
	"County": "莱芜区",
	"type": "电力",
	"code": 4412
}, {
	"name": "山东泰山阳光集团莱芜电力有限公司",
	"Longitude": 117.135000587916,
	"Latitude": 36.1931987877881,
	"economize": "山东省",
	"City": "济南市",
	"County": "莱芜区",
	"type": "电力",
	"code": 4412
}, {
	"name": "山东晋控日月新材料有限公司",
	"Longitude": 117.904068249184,
	"Latitude": 37.1820206005516,
	"economize": "山东省",
	"City": "济南市",
	"County": "章丘区",
	"type": "电力",
	"code": 4412
}, {
	"name": "济南长清热电有限公司",
	"Longitude": 116.754126696103,
	"Latitude": 36.5673746643128,
	"economize": "山东省",
	"City": "济南市",
	"County": "长清区",
	"type": "电力",
	"code": 4412
}, {
	"name": "华电青岛发电有限公司",
	"Longitude": 120.340306141312,
	"Latitude": 36.1117380406918,
	"economize": "山东省",
	"City": "青岛市",
	"County": "市北区",
	"type": "电力",
	"code": 4412
}, {
	"name": "青岛能源热电集团第一热力有限公司",
	"Longitude": 120.356821771295,
	"Latitude": 36.1482603721105,
	"economize": "山东省",
	"City": "青岛市",
	"County": "市北区",
	"type": "电力",
	"code": 4412
}, {
	"name": "青岛热电股份有限公司",
	"Longitude": 120.385172006363,
	"Latitude": 36.0924116666283,
	"economize": "山东省",
	"City": "青岛市",
	"County": "市北区",
	"type": "电力",
	"code": 4412
}, {
	"name": "青岛能源热电集团第五热力有限公司",
	"Longitude": 120.383783303583,
	"Latitude": 36.0927188986599,
	"economize": "山东省",
	"City": "青岛市",
	"County": "李沧区",
	"type": "电力",
	"code": 4412
}, {
	"name": "青岛东亿热电有限公司",
	"Longitude": 120.463128646973,
	"Latitude": 36.1212633490945,
	"economize": "山东省",
	"City": "青岛市",
	"County": "崂山区",
	"type": "电力",
	"code": 4412
}, {
	"name": "大唐黄岛发电有限责任公司",
	"Longitude": 120.222576331997,
	"Latitude": 36.0417415141474,
	"economize": "山东省",
	"City": "青岛市",
	"County": "黄岛区",
	"type": "电力",
	"code": 4412
}, {
	"name": "青岛海湾化学有限公司",
	"Longitude": 119.752038482134,
	"Latitude": 35.6453235218789,
	"economize": "山东省",
	"City": "青岛市",
	"County": "黄岛区",
	"type": "电力",
	"code": 2651
}, {
	"name": "青岛恒源热电有限公司",
	"Longitude": 120.137189078598,
	"Latitude": 36.0117274753646,
	"economize": "山东省",
	"City": "青岛市",
	"County": "黄岛区",
	"type": "电力",
	"code": 4412
}, {
	"name": "青岛西海岸公用事业集团易通热电有限公司",
	"Longitude": 119.992586622138,
	"Latitude": 35.8343974544064,
	"economize": "山东省",
	"City": "青岛市",
	"County": "黄岛区",
	"type": "电力",
	"code": 4412
}, {
	"name": "青岛中燃明月热电有限公司",
	"Longitude": 119.961586150715,
	"Latitude": 35.8838921069196,
	"economize": "山东省",
	"City": "青岛市",
	"County": "黄岛区",
	"type": "电力",
	"code": 4412
}, {
	"name": "赛轮集团股份有限公司",
	"Longitude": 120.391344256186,
	"Latitude": 36.1471051189198,
	"economize": "山东省",
	"City": "青岛市",
	"County": "黄岛区",
	"type": "电力",
	"code": 2911
}, {
	"name": "青岛海西热电有限公司",
	"Longitude": 120.020491275541,
	"Latitude": 35.8612077202803,
	"economize": "山东省",
	"City": "青岛市",
	"County": "黄岛区",
	"type": "电力",
	"code": 4412
}, {
	"name": "青岛市恒光热电有限公司",
	"Longitude": 120.154198737005,
	"Latitude": 35.9314354329816,
	"economize": "山东省",
	"City": "青岛市",
	"County": "黄岛区",
	"type": "电力",
	"code": 4412
}, {
	"name": "青岛金海热电有限公司",
	"Longitude": 120.326013027276,
	"Latitude": 36.3088260642533,
	"economize": "山东省",
	"City": "青岛市",
	"County": "城阳区",
	"type": "电力",
	"code": 4412
}, {
	"name": "青岛顺安热电有限公司",
	"Longitude": 120.421508353601,
	"Latitude": 36.312882999668,
	"economize": "山东省",
	"City": "青岛市",
	"County": "城阳区",
	"type": "电力",
	"code": 4412
}, {
	"name": "即墨市热电厂",
	"Longitude": 120.454881622907,
	"Latitude": 36.4075637406014,
	"economize": "山东省",
	"City": "青岛市",
	"County": "即墨区",
	"type": "电力",
	"code": 4412
}, {
	"name": "青岛新源热电有限公司",
	"Longitude": 120.408922291817,
	"Latitude": 36.3956148159287,
	"economize": "山东省",
	"City": "青岛市",
	"County": "即墨区",
	"type": "电力",
	"code": 4412
}, {
	"name": "青岛龙发热电有限公司",
	"Longitude": 120.113192181852,
	"Latitude": 36.3201486431682,
	"economize": "山东省",
	"City": "青岛市",
	"County": "胶州市",
	"type": "电力",
	"code": 4412
}, {
	"name": "青岛海湾精细化工有限公司",
	"Longitude": 119.615968907977,
	"Latitude": 36.9834972500696,
	"economize": "山东省",
	"City": "青岛市",
	"County": "平度市",
	"type": "电力",
	"code": 2645
}, {
	"name": "青岛兴平热电有限公司",
	"Longitude": 119.964430057418,
	"Latitude": 36.7784802477367,
	"economize": "山东省",
	"City": "青岛市",
	"County": "平度市",
	"type": "电力",
	"code": 4412
}, {
	"name": "青岛九联集团股份有限公司热电厂",
	"Longitude": 120.47121776828,
	"Latitude": 36.8513419003696,
	"economize": "山东省",
	"City": "青岛市",
	"County": "莱西市",
	"type": "电力",
	"code": 4412
}, {
	"name": "青岛金莱热电有限公司",
	"Longitude": 120.507219210895,
	"Latitude": 36.8529489706478,
	"economize": "山东省",
	"City": "青岛市",
	"County": "莱西市",
	"type": "电力",
	"code": 4412
}, {
	"name": "青岛蓝宝石酒业有限公司",
	"Longitude": 120.531308291228,
	"Latitude": 36.8476369169382,
	"economize": "山东省",
	"City": "青岛市",
	"County": "莱西市",
	"type": "电力",
	"code": 1513
}, {
	"name": "青岛万强鑫昊投资有限公司",
	"Longitude": 120.318755672996,
	"Latitude": 37.0276833691064,
	"economize": "山东省",
	"City": "青岛市",
	"County": "莱西市",
	"type": "电力",
	"code": 4412
}, {
	"name": "华电国际电力股份有限公司十里泉发电厂",
	"Longitude": 117.571647241224,
	"Latitude": 34.8130178291953,
	"economize": "山东省",
	"City": "枣庄市",
	"County": "市中区",
	"type": "电力",
	"code": 4412
}, {
	"name": "枣庄南郊热电有限公司",
	"Longitude": 117.519990286065,
	"Latitude": 34.8304445356541,
	"economize": "山东省",
	"City": "枣庄市",
	"County": "市中区",
	"type": "电力",
	"code": 4412
}, {
	"name": "山东丰源通达电力有限公司",
	"Longitude": 117.547225531854,
	"Latitude": 34.7391227773515,
	"economize": "山东省",
	"City": "枣庄市",
	"County": "峄城区",
	"type": "电力",
	"code": 4411
}, {
	"name": "山东王晁煤电集团热电有限公司",
	"Longitude": 117.714654592999,
	"Latitude": 34.574507367974,
	"economize": "山东省",
	"City": "枣庄市",
	"County": "台儿庄区",
	"type": "电力",
	"code": 4412
}, {
	"name": "枣庄矿业集团蒋庄煤矸石热电有限责任公司",
	"Longitude": 116.903625631103,
	"Latitude": 35.0734404613922,
	"economize": "山东省",
	"City": "枣庄市",
	"County": "滕州市",
	"type": "电力",
	"code": 4412
}, {
	"name": "山东滕州盛源热电有限责任公司",
	"Longitude": 117.033943856365,
	"Latitude": 34.9552471785118,
	"economize": "山东省",
	"City": "枣庄市",
	"County": "滕州市",
	"type": "电力",
	"code": 4412
}, {
	"name": "兖矿鲁南化工有限公司",
	"Longitude": 116.953591973387,
	"Latitude": 35.4082143745161,
	"economize": "山东省",
	"City": "枣庄市",
	"County": "滕州市",
	"type": "电力",
	"code": 2614
}, {
	"name": "滕州亿达华闻煤电化有限公司",
	"Longitude": 117.03617696823,
	"Latitude": 35.0172862169755,
	"economize": "山东省",
	"City": "枣庄市",
	"County": "滕州市",
	"type": "电力",
	"code": 4412
}, {
	"name": "山东恒仁工贸有限公司",
	"Longitude": 117.295100238519,
	"Latitude": 35.1600505267172,
	"economize": "山东省",
	"City": "枣庄市",
	"County": "滕州市",
	"type": "电力",
	"code": 4412
}, {
	"name": "华电滕州新源热电有限公司",
	"Longitude": 117.135969481322,
	"Latitude": 35.0697447730482,
	"economize": "山东省",
	"City": "枣庄市",
	"County": "滕州市",
	"type": "电力",
	"code": 4412
}, {
	"name": "山东辛化硅胶有限公司",
	"Longitude": 117.29165837169,
	"Latitude": 35.156440068973,
	"economize": "山东省",
	"City": "枣庄市",
	"County": "滕州市",
	"type": "电力",
	"code": 2619
}, {
	"name": "滕州市大宗煤矸石热电有限公司",
	"Longitude": 117.114696484036,
	"Latitude": 34.9157873819379,
	"economize": "山东省",
	"City": "枣庄市",
	"County": "滕州市",
	"type": "电力",
	"code": 4412
}, {
	"name": "枣庄市建阳热电有限公司",
	"Longitude": 118.120999901221,
	"Latitude": 27.3317003530902,
	"economize": "山东省",
	"City": "枣庄市",
	"County": "薛城区",
	"type": "电力",
	"code": 4412
}, {
	"name": "枣庄华润纸业有限公司",
	"Longitude": 117.455490475211,
	"Latitude": 35.087163680622,
	"economize": "山东省",
	"City": "枣庄市",
	"County": "山亭区",
	"type": "电力",
	"code": 2221
}, {
	"name": "远通纸业（山东）有限公司",
	"Longitude": 117.320094574081,
	"Latitude": 34.8416226015118,
	"economize": "山东省",
	"City": "枣庄市",
	"County": "薛城区",
	"type": "电力",
	"code": "2221\n4412"
}, {
	"name": "枣庄八一水煤浆热电有限公司",
	"Longitude": 117.274226311027,
	"Latitude": 34.8281361597662,
	"economize": "山东省",
	"City": "枣庄市",
	"County": "高新区",
	"type": "电力",
	"code": 4412
}, {
	"name": "胜利国电（东营）热电有限公司",
	"Longitude": 118.257510324184,
	"Latitude": 34.6830602786438,
	"economize": "山东省",
	"City": "东营市",
	"County": "东营区",
	"type": "电力",
	"code": 4412
}, {
	"name": "中国石化集团胜利石油管理局有限公司胜利发电厂",
	"Longitude": 118.257510324184,
	"Latitude": 34.6830602786438,
	"economize": "山东省",
	"City": "东营市",
	"County": "东营区",
	"type": "电力",
	"code": 4412
}, {
	"name": "山东万达热电有限公司",
	"Longitude": 118.464035375963,
	"Latitude": 37.5532832752067,
	"economize": "山东省",
	"City": "东营市",
	"County": "垦利区",
	"type": "电力",
	"code": 4412
}, {
	"name": "山东兴达新能源有限公司",
	"Longitude": 118.64720680976,
	"Latitude": 37.58255416276,
	"economize": "山东省",
	"City": "东营市",
	"County": "垦利区",
	"type": "电力",
	"code": 4412
}, {
	"name": "东营市垦利惠能热电有限公司",
	"Longitude": 118.550968378065,
	"Latitude": 37.5591867305672,
	"economize": "山东省",
	"City": "东营市",
	"County": "垦利区",
	"type": "电力",
	"code": 4412
}, {
	"name": "山东正和热电有限公司",
	"Longitude": 118.412234850388,
	"Latitude": 37.0780501756082,
	"economize": "山东省",
	"City": "东营市",
	"County": "广饶县",
	"type": "电力",
	"code": 4412
}, {
	"name": "山东华泰热力有限公司",
	"Longitude": 117.000537831473,
	"Latitude": 36.7375258360213,
	"economize": "山东省",
	"City": "东营市",
	"County": "广饶县",
	"type": "电力",
	"code": 4412
}, {
	"name": "广饶县大王热力有限公司",
	"Longitude": 118.5313140935,
	"Latitude": 37.0043538790273,
	"economize": "山东省",
	"City": "东营市",
	"County": "广饶县",
	"type": "电力",
	"code": 4412
}, {
	"name": "东营市西水集团热电有限责任公司",
	"Longitude": 118.542804459861,
	"Latitude": 37.0433700058681,
	"economize": "山东省",
	"City": "东营市",
	"County": "广饶县",
	"type": "电力",
	"code": 4412
}, {
	"name": "山东金岭化工股份有限公司",
	"Longitude": 120.303419921499,
	"Latitude": 37.4014296794049,
	"economize": "山东省",
	"City": "东营市",
	"County": "广饶县",
	"type": "电力",
	"code": 4412
}, {
	"name": "利华益利津炼化有限公司",
	"Longitude": 118.238841423009,
	"Latitude": 37.5143701517708,
	"economize": "山东省",
	"City": "东营市",
	"County": "利津县",
	"type": "电力",
	"code": 4412
}, {
	"name": "利津力能热电有限公司",
	"Longitude": 118.207014740584,
	"Latitude": 37.514175954683,
	"economize": "山东省",
	"City": "东营市",
	"County": "利津县",
	"type": "电力",
	"code": 4412
}, {
	"name": "东营市滨海热力有限公司",
	"Longitude": 118.862138374764,
	"Latitude": 37.429550886501,
	"economize": "山东省",
	"City": "东营市",
	"County": "东营经济技术开发区",
	"type": "电力",
	"code": 4412
}, {
	"name": "东营华泰化工集团有限公司",
	"Longitude": 118.883076166587,
	"Latitude": 37.4121116535576,
	"economize": "山东省",
	"City": "东营市",
	"County": "东营经济技术开发区",
	"type": "电力",
	"code": 4412
}, {
	"name": "东营金茂铝业高科技有限公司",
	"Longitude": 118.851315117261,
	"Latitude": 37.4340980074488,
	"economize": "山东省",
	"City": "东营市",
	"County": "东营经济技术开发区",
	"type": "电力",
	"code": 4412
}, {
	"name": "东营市港城热力有限公司",
	"Longitude": 118.904978806964,
	"Latitude": 38.0746538892236,
	"economize": "山东省",
	"City": "东营市",
	"County": "东营港经济开发区",
	"type": "电力",
	"code": 4412
}, {
	"name": "东营华泰清河实业有限公司",
	"Longitude": 118.662944074347,
	"Latitude": 37.4337921148394,
	"economize": "山东省",
	"City": "东营市",
	"County": "黄河三角洲农业高新技术产业示范区",
	"type": "电力",
	"code": 4412
}, {
	"name": "东营海欣热力供应有限公司",
	"Longitude": 118.390361957384,
	"Latitude": 37.4133233736887,
	"economize": "山东省",
	"City": "东营市",
	"County": "东营区",
	"type": "电力",
	"code": 4412
}, {
	"name": "大唐东营发电有限公司",
	"Longitude": 118.669225507538,
	"Latitude": 37.4162830756289,
	"economize": "山东省",
	"City": "东营市",
	"County": "东营港经济开发区",
	"type": "电力",
	"code": 4411
}, {
	"name": "东营市垦利阳光热力有限公司",
	"Longitude": 118.547773736248,
	"Latitude": 37.5874288119378,
	"economize": "山东省",
	"City": "东营市",
	"County": "垦利区",
	"type": "电力",
	"code": 4412
}, {
	"name": "华能山东发电有限公司烟台发电厂",
	"Longitude": 117.09669320381,
	"Latitude": 36.7126435471132,
	"economize": "山东省",
	"City": "烟台市",
	"County": "芝罘区",
	"type": "电力",
	"code": "4412"
}, {
	"name": "莱阳市热电有限公司",
	"Longitude": 120.711999614505,
	"Latitude": 36.9783005537673,
	"economize": "山东省",
	"City": "烟台市",
	"County": "莱阳市",
	"type": "电力",
	"code": "4412"
}, {
	"name": "烟台清泉实业有限公司",
	"Longitude": 121.484341304783,
	"Latitude": 37.4217851338283,
	"economize": "山东省",
	"City": "烟台市",
	"County": "莱山区",
	"type": "电力",
	"code": "D4412"
}, {
	"name": "山东怡力电业有限公司",
	"Longitude": 117.000537831473,
	"Latitude": 36.7375258360213,
	"economize": "山东省",
	"City": "烟台市",
	"County": "龙口市",
	"type": "电力",
	"code": "4412"
}, {
	"name": "龙口市丛林热电有限公司",
	"Longitude": 120.577947039829,
	"Latitude": 37.6835813284428,
	"economize": "山东省",
	"City": "烟台市",
	"County": "龙口市",
	"type": "电力",
	"code": "4412"
}, {
	"name": "华电龙口发电有限公司",
	"Longitude": 120.318047140651,
	"Latitude": 37.6771654638285,
	"economize": "山东省",
	"City": "烟台市",
	"County": "龙口市",
	"type": "电力",
	"code": "4412"
}, {
	"name": "龙口嘉元东盛热电有限公司",
	"Longitude": 120.507110322584,
	"Latitude": 37.6142479327578,
	"economize": "山东省",
	"City": "烟台市",
	"County": "龙口市",
	"type": "电力",
	"code": "4412"
}, {
	"name": "龙口矿业集团热电有限公司",
	"Longitude": 120.314620558773,
	"Latitude": 37.6800190268542,
	"economize": "山东省",
	"City": "烟台市",
	"County": "龙口市",
	"type": "电力",
	"code": "4412"
}, {
	"name": "华能烟台八角热电有限公司",
	"Longitude": 121.121639534539,
	"Latitude": 37.62732585775,
	"economize": "山东省",
	"City": "烟台市",
	"County": "经济技术开发区",
	"type": "电力",
	"code": "4412"
}, {
	"name": "龙口玉龙纸业有限公司",
	"Longitude": 120.516789661917,
	"Latitude": 37.7456515869384,
	"economize": "山东省",
	"City": "烟台市",
	"County": "龙口市",
	"type": "电力",
	"code": "4412"
}, {
	"name": "海阳龙凤热电有限公司",
	"Longitude": 121.211008617536,
	"Latitude": 36.7474782206345,
	"economize": "山东省",
	"City": "烟台市",
	"County": "海阳市",
	"type": "电力",
	"code": "4412"
}, {
	"name": "烟台东源热电有限公司",
	"Longitude": 121.036664353999,
	"Latitude": 37.4777066745741,
	"economize": "山东省",
	"City": "烟台市",
	"County": "福山区",
	"type": "电力",
	"code": "4412"
}, {
	"name": "招远市正焱热力有限公司",
	"Longitude": 120.410655863518,
	"Latitude": 37.3921900687529,
	"economize": "山东省",
	"City": "烟台市",
	"County": "招远市",
	"type": "电力",
	"code": "4412"
}, {
	"name": "招远市热电厂有限公司",
	"Longitude": 120.389549930926,
	"Latitude": 37.3674581422663,
	"economize": "山东省",
	"City": "烟台市",
	"County": "招远市",
	"type": "电力",
	"code": "4412"
}, {
	"name": "招远玲珑热电有限公司",
	"Longitude": 120.444728410935,
	"Latitude": 37.3916524704366,
	"economize": "山东省",
	"City": "烟台市",
	"County": "招远市",
	"type": "电力",
	"code": "4412"
}, {
	"name": "莱州龙泰热电有限公司",
	"Longitude": 119.925983585498,
	"Latitude": 37.2159751011771,
	"economize": "山东省",
	"City": "烟台市",
	"County": "莱州市",
	"type": "电力",
	"code": "4412"
}, {
	"name": "华电莱州发电有限公司",
	"Longitude": 119.942000177589,
	"Latitude": 37.1769998438091,
	"economize": "山东省",
	"City": "烟台市",
	"County": "莱州市",
	"type": "电力",
	"code": "4412"
}, {
	"name": "国家能源蓬莱发电有限公司",
	"Longitude": 120.600690738553,
	"Latitude": 37.7582792273062,
	"economize": "山东省",
	"City": "烟台市",
	"County": "蓬莱市",
	"type": "电力",
	"code": "4412"
}, {
	"name": "蓬莱东海热电有限公司",
	"Longitude": 120.856825936064,
	"Latitude": 37.8018907915519,
	"economize": "山东省",
	"City": "烟台市",
	"County": "蓬莱市",
	"type": "电力",
	"code": "4412"
}, {
	"name": "万华化学（烟台）氯碱热电有限公司",
	"Longitude": 121.241219934964,
	"Latitude": 37.5579630885907,
	"economize": "山东省",
	"City": "烟台市",
	"County": "经济技术开发区",
	"type": "电力",
	"code": "4412"
}, {
	"name": "烟台西部热电有限公司（华鲁厂区）",
	"Longitude": 121.279550394812,
	"Latitude": 37.5517102189035,
	"economize": "山东省",
	"City": "烟台市",
	"County": "经济技术开发区",
	"type": "电力",
	"code": "4412"
}, {
	"name": "烟台亿通生物能源有限公司（原亿通热电）",
	"Longitude": 121.574356492198,
	"Latitude": 37.4092691398184,
	"economize": "山东省",
	"City": "烟台市",
	"County": "牟平区",
	"type": "电力",
	"code": "4412"
}, {
	"name": "烟台东部热电有限公司",
	"Longitude": 121.674785904158,
	"Latitude": 37.4280314304739,
	"economize": "山东省",
	"City": "烟台市",
	"County": "牟平区",
	"type": "电力",
	"code": "4412"
}, {
	"name": "山东南山铝业股份有限公司",
	"Longitude": 113.921000882082,
	"Latitude": 22.5250262562858,
	"economize": "山东省",
	"City": "烟台市",
	"County": "龙口市",
	"type": "电力",
	"code": "4412"
}, {
	"name": "安丘盛源热电有限责任公司",
	"Longitude": 119.204197032559,
	"Latitude": 36.4440320570301,
	"economize": "山东省",
	"City": "潍坊市",
	"County": "安丘市",
	"type": "电力",
	"code": "4412"
}, {
	"name": "安丘市天裕热电有限公司",
	"Longitude": 119.20708097062,
	"Latitude": 36.4862540677729,
	"economize": "山东省",
	"City": "潍坊市",
	"County": "安丘市",
	"type": "电力",
	"code": "4412"
}, {
	"name": "青州益能热电有限责任公司",
	"Longitude": 118.504628058201,
	"Latitude": 36.7210337348806,
	"economize": "山东省",
	"City": "潍坊市",
	"County": "青州市",
	"type": "电力",
	"code": "4412"
}, {
	"name": "中化弘润石油化工有限公司",
	"Longitude": 116.464492814826,
	"Latitude": 36.175614332505,
	"economize": "山东省",
	"City": "潍坊市",
	"County": "青州市",
	"type": "电力",
	"code": 2511
}, {
	"name": "山东海化盛兴热电有限公司",
	"Longitude": 118.500564143591,
	"Latitude": 36.6949919713223,
	"economize": "山东省",
	"City": "潍坊市",
	"County": "青州市",
	"type": "电力",
	"code": "4412"
}, {
	"name": "山东海化集团有限公司热力电力分公司",
	"Longitude": 118.98828006747,
	"Latitude": 37.1258109464416,
	"economize": "山东",
	"City": "潍坊市",
	"County": "寒亭（滨海）",
	"type": "电力",
	"code": "4412"
}, {
	"name": "山东新和成药业有限公司热电分公司",
	"Longitude": 119.111104430061,
	"Latitude": 37.0653872232322,
	"economize": "山东省",
	"City": "潍坊市",
	"County": "滨海区",
	"type": "电力",
	"code": 4412
}, {
	"name": "潍坊海成热电有限公司",
	"Longitude": 119.03180245917,
	"Latitude": 36.7165450537876,
	"economize": "山东省",
	"City": "潍坊市",
	"County": "滨海区",
	"type": "电力",
	"code": 4412
}, {
	"name": "华电潍坊发电有限公司",
	"Longitude": 119.131490335401,
	"Latitude": 36.6927167144982,
	"economize": "山东省",
	"City": "潍坊市",
	"County": "高新区",
	"type": "电力",
	"code": 4412
}, {
	"name": "山东银鹰化纤有限公司",
	"Longitude": 119.811554498703,
	"Latitude": 36.3903780583811,
	"economize": "山东省",
	"City": "潍坊市",
	"County": "高密市",
	"type": "电力",
	"code": "2812"
}, {
	"name": "高密万仁热电有限公司",
	"Longitude": 119.780698219446,
	"Latitude": 36.348244009042,
	"economize": "山东省",
	"City": "潍坊市",
	"County": "高密市",
	"type": "电力",
	"code": "4412"
}, {
	"name": "昌乐盛世热电有限责任公司",
	"Longitude": 118.851890309819,
	"Latitude": 36.7402194097998,
	"economize": "山东省",
	"City": "潍坊市",
	"County": "昌乐县",
	"type": "电力",
	"code": 4412
}, {
	"name": "山东英轩实业股份有限公司",
	"Longitude": 118.815555065993,
	"Latitude": 36.6960276453805,
	"economize": "山东省",
	"City": "潍坊市",
	"County": "昌乐县",
	"type": "电力",
	"code": "1469"
}, {
	"name": "潍坊滨恒热电有限公司",
	"Longitude": 119.161999796602,
	"Latitude": 36.7062995803315,
	"economize": "山东省",
	"City": "潍坊市",
	"County": "寒亭区",
	"type": "电力",
	"code": "4412"
}, {
	"name": "潍坊新方热电有限公司",
	"Longitude": 119.183823762917,
	"Latitude": 36.6033693975988,
	"economize": "山东省",
	"City": "潍坊市",
	"County": "坊子区",
	"type": "电力",
	"code": 4412
}, {
	"name": "潍坊恒安热电有限公司",
	"Longitude": 119.157014923431,
	"Latitude": 36.6360867844216,
	"economize": "山东省",
	"City": "潍坊市",
	"County": "坊子区",
	"type": "电力",
	"code": 4412
}, {
	"name": "山东昌邑海能化学有限责任公司",
	"Longitude": 119.3334429166,
	"Latitude": 36.9815817148538,
	"economize": "山东省",
	"City": "潍坊市",
	"County": "昌邑市",
	"type": "电力",
	"code": "2612"
}, {
	"name": "山东海天生物化工有限公司",
	"Longitude": 119.564228232102,
	"Latitude": 37.0078015164392,
	"economize": "山东省",
	"City": "潍坊市",
	"County": "昌邑市",
	"type": "电力",
	"code": 2612
}, {
	"name": "国能寿光发电有限责任公司",
	"Longitude": 118.910995789457,
	"Latitude": 37.2695550651586,
	"economize": "山东省",
	"City": "潍坊市",
	"County": "寿光市",
	"type": "电力",
	"code": "4412"
}, {
	"name": "山东晨鸣纸业集团股份有限公司",
	"Longitude": 118.726857605274,
	"Latitude": 36.8680995737354,
	"economize": "山东省",
	"City": "潍坊市",
	"County": "寿光市",
	"type": "电力",
	"code": "4412"
}, {
	"name": "寿光美伦纸业有限制责任公司",
	"Longitude": 118.751018181805,
	"Latitude": 36.8783516617876,
	"economize": "山东省",
	"City": "潍坊市",
	"County": "寿光市",
	"type": "电力",
	"code": "4412"
}, {
	"name": "山东天力药业有限公司维生素分公司",
	"Longitude": 117.000537831473,
	"Latitude": 36.7375258360213,
	"economize": "山东省",
	"City": "潍坊市",
	"County": "寿光市",
	"type": "电力",
	"code": "2710"
}, {
	"name": "山东泰普新能源有限公司",
	"Longitude": 117.074290195979,
	"Latitude": 36.8274102264232,
	"economize": "山东省",
	"City": "潍坊市",
	"County": "寿光市",
	"type": "电力",
	"code": "4412"
}, {
	"name": "山东新龙集团有限公司",
	"Longitude": 100.311999642174,
	"Latitude": 30.9392004475474,
	"economize": "山东省",
	"City": "潍坊市",
	"County": "寿光市",
	"type": "电力",
	"code": "2612"
}, {
	"name": "山东寿光巨能热电发展有限公司",
	"Longitude": 118.786374456349,
	"Latitude": 36.9456060810552,
	"economize": "山东省",
	"City": "潍坊市",
	"County": "寿光市",
	"type": "电力",
	"code": "4412"
}, {
	"name": "诸城市同路热电有限公司",
	"Longitude": 119.48217089207,
	"Latitude": 36.0752343591906,
	"economize": "山东省",
	"City": "潍坊市",
	"County": "诸城市",
	"type": "电力",
	"code": 4412
}, {
	"name": "诸城经济开发区恒阳热电有限公司",
	"Longitude": 119.3862979665,
	"Latitude": 36.0466968281569,
	"economize": "山东省",
	"City": "潍坊市",
	"County": "诸城市",
	"type": "电力",
	"code": 4412
}, {
	"name": "诸城市龙光热电有限公司",
	"Longitude": 119.551684911293,
	"Latitude": 36.052395165392,
	"economize": "山东省",
	"City": "潍坊市",
	"County": "诸城市",
	"type": "电力",
	"code": 4412
}, {
	"name": "诸城恒源热力有限公司",
	"Longitude": 119.409999986449,
	"Latitude": 35.9956989064497,
	"economize": "山东省",
	"City": "潍坊市",
	"County": "诸城市",
	"type": "电力",
	"code": 4412
}, {
	"name": "诸城金安热电有限公司",
	"Longitude": 119.415244516817,
	"Latitude": 36.0157537606126,
	"economize": "山东省",
	"City": "潍坊市",
	"County": "诸城市",
	"type": "电力",
	"code": 4412
}, {
	"name": "诸城兴贸玉米开发有限公司",
	"Longitude": 119.435248044241,
	"Latitude": 36.0025505329198,
	"economize": "山东省",
	"City": "潍坊市",
	"County": "诸城市",
	"type": "电力",
	"code": 4412
}, {
	"name": "临朐县西城热电有限公司",
	"Longitude": 118.525682495685,
	"Latitude": 36.5326631496989,
	"economize": "山东省",
	"City": "潍坊市",
	"County": "临朐县",
	"type": "电力",
	"code": "4412"
}, {
	"name": "山东济矿鲁能煤电股份有限公司阳城电厂",
	"Longitude": 117.000537831473,
	"Latitude": 36.7375258360213,
	"economize": "山东省",
	"City": "济宁市",
	"County": "汶上县",
	"type": "电力",
	"code": 4412
}, {
	"name": "华能嘉祥发电有限公司",
	"Longitude": 116.446653000086,
	"Latitude": 35.3803880896751,
	"economize": "山东省",
	"City": "济宁市",
	"County": "济宁经济技术开发区",
	"type": "电力",
	"code": "4412"
}, {
	"name": "华能济宁运河发电有限公司",
	"Longitude": 116.476753153271,
	"Latitude": 35.4837681493268,
	"economize": "山东省",
	"City": "济宁市",
	"County": "任城区",
	"type": "电力",
	"code": "4412"
}, {
	"name": "华能国际电力股份有限公司济宁电厂",
	"Longitude": 116.564926812958,
	"Latitude": 35.3994795176575,
	"economize": "山东省",
	"City": "济宁市",
	"County": "任城区",
	"type": "电力",
	"code": "4412"
}, {
	"name": "济宁盛唐能源有限公司",
	"Longitude": 116.522374796763,
	"Latitude": 35.3013895590042,
	"economize": "山东省",
	"City": "济宁市",
	"County": "任城区",
	"type": "电力",
	"code": 4412
}, {
	"name": "微山县微山湖热电有限责任公司",
	"Longitude": 117.130068512834,
	"Latitude": 34.8068395696242,
	"economize": "山东省",
	"City": "济宁市",
	"County": "微山县",
	"type": "电力",
	"code": 4412
}, {
	"name": "枣庄矿业（集团）付村矸石热电有限公司",
	"Longitude": 116.903625631103,
	"Latitude": 35.0734404613922,
	"economize": "山东省",
	"City": "济宁市",
	"County": "微山县",
	"type": "电力",
	"code": "4412"
}, {
	"name": "华电国际电力股份有限公司邹县发电厂",
	"Longitude": 117.571647241224,
	"Latitude": 34.8130178291953,
	"economize": "山东省",
	"City": "济宁市",
	"County": "邹城市",
	"type": "电力",
	"code": 4412
}, {
	"name": "华电邹县发电有限公司",
	"Longitude": 117.063824827423,
	"Latitude": 36.6499223967343,
	"economize": "山东省",
	"City": "济宁市",
	"County": "邹城市",
	"type": "电力",
	"code": 4411
}, {
	"name": "兖矿国宏化工有限责任公司",
	"Longitude": 116.953591973387,
	"Latitude": 35.4082143745161,
	"economize": "山东省",
	"City": "济宁市",
	"County": "邹城市",
	"type": "电力",
	"code": "2619/4412"
}, {
	"name": "山东里彦发电有限公司",
	"Longitude": 116.794320885262,
	"Latitude": 35.3404501957836,
	"economize": "山东省",
	"City": "济宁市",
	"County": "邹城市",
	"type": "电力",
	"code": 4412
}, {
	"name": "华能曲阜热电有限公司",
	"Longitude": 116.987000004453,
	"Latitude": 35.5811009308939,
	"economize": "山东省",
	"City": "济宁市",
	"County": "曲阜市",
	"type": "电力",
	"code": "4412"
}, {
	"name": "泗水圣源热电有限公司",
	"Longitude": 117.222148697223,
	"Latitude": 35.6630915368324,
	"economize": "山东省",
	"City": "济宁市",
	"County": "泗水县",
	"type": "电力",
	"code": "4412"
}, {
	"name": "山东太阳纸业股份有限公司",
	"Longitude": 116.81514428512,
	"Latitude": 35.5426020886363,
	"economize": "山东省",
	"City": "济宁市",
	"County": "兖州区",
	"type": "电力",
	"code": "2221/4412"
}, {
	"name": "兖州市银河电力有限公司",
	"Longitude": 116.788841978277,
	"Latitude": 35.5021559213409,
	"economize": "山东省",
	"City": "济宁市",
	"County": "兖州区",
	"type": "电力",
	"code": 4412
}, {
	"name": "兖州聚源热电有限责任公司",
	"Longitude": 116.794769318797,
	"Latitude": 35.578945646826,
	"economize": "山东省",
	"City": "济宁市",
	"County": "兖州区",
	"type": "电力",
	"code": 4412
}, {
	"name": "山东鲁泰热电有限公司",
	"Longitude": 116.56713346365,
	"Latitude": 35.0917509082697,
	"economize": "山东省",
	"City": "济宁市",
	"County": "鱼台县",
	"type": "电力",
	"code": 4412
}, {
	"name": "嘉祥县嘉星热电有限公司",
	"Longitude": 116.332084772832,
	"Latitude": 35.3791621504887,
	"economize": "山东省",
	"City": "济宁市",
	"County": "嘉祥县",
	"type": "电力",
	"code": "4412"
}, {
	"name": "梁山菱花生物科技有限公司",
	"Longitude": 116.118385798232,
	"Latitude": 35.8141742186266,
	"economize": "山东省",
	"City": "济宁市",
	"County": "梁山县",
	"type": "电力",
	"code": "1461、4412"
}, {
	"name": "山东兖矿济三电力有限公司",
	"Longitude": 116.669173175031,
	"Latitude": 35.2711541352107,
	"economize": "山东省",
	"City": "济宁市",
	"County": "北湖省级旅游度假区",
	"type": "电力",
	"code": "4412"
}, {
	"name": "济宁华源热电有限公司",
	"Longitude": 116.713515703384,
	"Latitude": 35.47055689306,
	"economize": "山东省",
	"City": "济宁市",
	"County": "高新区",
	"type": "电力",
	"code": 4412
}, {
	"name": "济宁市雪兖热电有限公司",
	"Longitude": 116.743115749631,
	"Latitude": 35.4279015936279,
	"economize": "山东省",
	"City": "济宁市",
	"County": "高新区",
	"type": "电力",
	"code": 4412
}, {
	"name": "泰安市泰山东城热电有限责任公司",
	"Longitude": 117.206474514055,
	"Latitude": 36.204888057879,
	"economize": "山东省",
	"City": "泰安市",
	"County": "泰山区",
	"type": "电力",
	"code": 4412
}, {
	"name": "山东泰汶盐化工有限责任公司",
	"Longitude": 117.075622015199,
	"Latitude": 36.045026101209,
	"economize": "山东省",
	"City": "泰安市",
	"County": "岱岳区",
	"type": "电力",
	"code": "2612/2651/4412"
}, {
	"name": "山东岱岳制盐有限公司",
	"Longitude": 117.073751243587,
	"Latitude": 36.0263208604925,
	"economize": "山东省",
	"City": "泰安市",
	"County": "岱岳区",
	"type": "电力",
	"code": "1494/4412"
}, {
	"name": "德州实华化工有限公司泰安分公司",
	"Longitude": 116.360802710161,
	"Latitude": 37.5108005245698,
	"economize": "山东省",
	"City": "泰安市",
	"County": "岱岳区",
	"type": "无机盐制造",
	"code": 2613
}, {
	"name": "泰山石膏有限公司",
	"Longitude": 117.101708422115,
	"Latitude": 36.1844973843093,
	"economize": "山东省",
	"City": "泰安市",
	"County": "岱岳区",
	"type": "电力",
	"code": 4412
}, {
	"name": "国家能源泰安热电有限公司",
	"Longitude": 117.142859950066,
	"Latitude": 36.0788023802552,
	"economize": "山东省",
	"City": "泰安市",
	"County": "高新区",
	"type": "电力",
	"code": 4412
}, {
	"name": "华能山东发电有限公司众泰电厂",
	"Longitude": 117.09669320381,
	"Latitude": 36.7126435471132,
	"economize": "山东省",
	"City": "泰安市",
	"County": "新泰市",
	"type": "电力",
	"code": 4412
}, {
	"name": "山东新汶热电有限公司",
	"Longitude": 117.677690413168,
	"Latitude": 35.8650791224474,
	"economize": "山东省",
	"City": "泰安市",
	"County": "新泰市",
	"type": "电力",
	"code": 4412
}, {
	"name": "山东光明热电有限公司",
	"Longitude": 113.936169668345,
	"Latitude": 22.7487498102463,
	"economize": "山东省",
	"City": "泰安市",
	"County": "新泰市",
	"type": "电力",
	"code": 4412
}, {
	"name": "泰安立人热电有限责任公司",
	"Longitude": 117.099454909663,
	"Latitude": 36.183294828001,
	"economize": "山东省",
	"City": "泰安市",
	"County": "新泰市",
	"type": "电力",
	"code": 4412
}, {
	"name": "山东惠普矸石电力股份有限公司",
	"Longitude": 117.651994568119,
	"Latitude": 35.8834003000343,
	"economize": "山东省",
	"City": "泰安市",
	"County": "新泰市",
	"type": "电力",
	"code": 4412
}, {
	"name": "泰安新汶顶峰热电有限公司",
	"Longitude": 117.677690413168,
	"Latitude": 35.8650791224474,
	"economize": "山东省",
	"City": "泰安市",
	"County": "新泰市",
	"type": "电力",
	"code": 4412
}, {
	"name": "新泰正大热电有限责任公司",
	"Longitude": 117.755812750408,
	"Latitude": 35.9009187745302,
	"economize": "山东省",
	"City": "泰安市",
	"County": "新泰市",
	"type": "电力",
	"code": 4412
}, {
	"name": "国家能源（山东）新能源有限公司石横分公司",
	"Longitude": 119.996048360753,
	"Latitude": 35.8135225281166,
	"economize": "山东省",
	"City": "泰安市",
	"County": "肥城市",
	"type": "电力",
	"code": 4412
}, {
	"name": "国家能源集团山东石横热电有限公司",
	"Longitude": 121.20215353902,
	"Latitude": 37.5510420892295,
	"economize": "山东省",
	"City": "泰安市",
	"County": "肥城市",
	"type": "电力",
	"code": 4412
}, {
	"name": "山东福宽生物工程有限公司",
	"Longitude": 116.715417774447,
	"Latitude": 36.1982704603083,
	"economize": "山东省",
	"City": "泰安市",
	"County": "肥城市",
	"type": "电力",
	"code": 4412
}, {
	"name": "肥城胜利盐业有限公司",
	"Longitude": 116.865299838642,
	"Latitude": 36.0057433210774,
	"economize": "山东省",
	"City": "泰安市",
	"County": "肥城市",
	"type": "电力",
	"code": 4412
}, {
	"name": "泰安华阳热电有限公司",
	"Longitude": 117.121561771766,
	"Latitude": 35.8955850231357,
	"economize": "山东省",
	"City": "泰安市",
	"County": "宁阳县",
	"type": "电力",
	"code": 4412
}, {
	"name": "泰安华丰顶峰热电有限公司",
	"Longitude": 117.173850066296,
	"Latitude": 35.8651004979096,
	"economize": "山东省",
	"City": "泰安市",
	"County": "宁阳县",
	"type": "电力",
	"code": 4412
}, {
	"name": "宁阳县金明热电有限责任公司",
	"Longitude": 116.793008749129,
	"Latitude": 35.7521084969986,
	"economize": "山东省",
	"City": "泰安市",
	"County": "宁阳县",
	"type": "电力",
	"code": 4412
}, {
	"name": "山东润银生物化工股份有限公司",
	"Longitude": 116.46513453353,
	"Latitude": 35.8829544389777,
	"economize": "山东省",
	"City": "泰安市",
	"County": "东平县",
	"type": "电力",
	"code": 4412
}, {
	"name": "华能威海发电有限责任公司",
	"Longitude": 122.121000035306,
	"Latitude": 37.5105992227371,
	"economize": "山东省",
	"City": "威海市",
	"County": "经济技术开发区",
	"type": "电力",
	"code": 4412
}, {
	"name": "威海市众音热电有限公司",
	"Longitude": 122.035471154042,
	"Latitude": 37.1890382347946,
	"economize": "山东省",
	"City": "威海市",
	"County": "文登区",
	"type": "电力",
	"code": 4412
}, {
	"name": "水发热电（荣成）有限公司",
	"Longitude": 122.415955743693,
	"Latitude": 37.1515525648359,
	"economize": "山东省",
	"City": "威海市",
	"County": "荣成市",
	"type": "电力",
	"code": 4412
}, {
	"name": "荣成邱家水产有限公司热电厂",
	"Longitude": 122.297905177269,
	"Latitude": 36.9939974017311,
	"economize": "山东省",
	"City": "威海市",
	"County": "荣成市",
	"type": "电力",
	"code": 4412
}, {
	"name": "威海魏桥能源有限公司",
	"Longitude": 122.008245182751,
	"Latitude": 37.478823465912,
	"economize": "山东省",
	"City": "威海市",
	"County": "环翠区",
	"type": "电力",
	"code": 4412
}, {
	"name": "乳山热电有限公司",
	"Longitude": 121.504016399931,
	"Latitude": 36.902139690119,
	"economize": "山东省",
	"City": "威海市",
	"County": "乳山市",
	"type": "电力",
	"code": 4412
}, {
	"name": "荣成市热电厂有限公司",
	"Longitude": 122.434925753071,
	"Latitude": 37.1439123513957,
	"economize": "山东省",
	"City": "威海市",
	"County": "荣成市",
	"type": "电力",
	"code": 4412
}, {
	"name": "威海市文登热电厂有限公司",
	"Longitude": 122.05800009705,
	"Latitude": 37.1938987556608,
	"economize": "山东省",
	"City": "威海市",
	"County": "文登区",
	"type": "电力",
	"code": 4412
}, {
	"name": "荣成市天颐热电有限公司",
	"Longitude": 122.406762335258,
	"Latitude": 37.1583127627682,
	"economize": "山东省",
	"City": "威海市",
	"County": "荣成市",
	"type": "电力",
	"code": 4412
}, {
	"name": "威海热电集团有限公司",
	"Longitude": 122.088406059359,
	"Latitude": 37.5143485168455,
	"economize": "山东省",
	"City": "威海市",
	"County": "火炬高技术产业开发区",
	"type": "电力",
	"code": 4411
}, {
	"name": "威海市南郊热电有限公司",
	"Longitude": 122.124634744834,
	"Latitude": 37.3310889471126,
	"economize": "山东省",
	"City": "威海市",
	"County": "临港经济技术开发区",
	"type": "电力",
	"code": 4412
}, {
	"name": "威海博通热电股份有限公司",
	"Longitude": 122.163062324611,
	"Latitude": 37.4003646401944,
	"economize": "山东省",
	"City": "威海市",
	"County": "经济技术开发区",
	"type": "电力",
	"code": 4412
}, {
	"name": "华能国际电力股份有限公司日照电厂",
	"Longitude": 116.564926812958,
	"Latitude": 35.3994795176575,
	"economize": "山东省",
	"City": "日照市",
	"County": "经济技术开发区",
	"type": "电力",
	"code": 4412
}, {
	"name": "山东日照发电有限公司",
	"Longitude": 119.518797308267,
	"Latitude": 35.3425391660166,
	"economize": "山东省",
	"City": "日照市",
	"County": "经济技术开发区",
	"type": "电力",
	"code": 4412
}, {
	"name": "莒县丰源热电有限公司",
	"Longitude": 118.830730935109,
	"Latitude": 35.6035143407546,
	"economize": "山东省",
	"City": "日照市",
	"County": "莒县",
	"type": "电力",
	"code": 4412
}, {
	"name": "山东凯翔阳光集团有限公司",
	"Longitude": 122.423888321951,
	"Latitude": 37.1563147087001,
	"economize": "山东省",
	"City": "日照市",
	"County": "五莲",
	"type": "电力",
	"code": 4412
}, {
	"name": "日照阳光热电有限公司",
	"Longitude": 119.499413609202,
	"Latitude": 35.3820150055416,
	"economize": "山东省",
	"City": "日照市",
	"County": "经济技术开发区",
	"type": "电力",
	"code": 4412
}, {
	"name": "日照新源热力有限公司",
	"Longitude": 119.452009744271,
	"Latitude": 35.4326207615166,
	"economize": "山东省",
	"City": "日照市",
	"County": "岚山区",
	"type": "电力",
	"code": 4412
}, {
	"name": "日照市凌云海糖业集团有限公司",
	"Longitude": 119.507354729648,
	"Latitude": 35.3795756213495,
	"economize": "山东省",
	"City": "日照市",
	"County": "经济技术开发区",
	"type": "电力",
	"code": 4412
}, {
	"name": "沂水县热电有限责任公司",
	"Longitude": 118.618839657241,
	"Latitude": 35.7602240047641,
	"economize": "山东省",
	"City": "临沂市",
	"County": "沂水县",
	"type": "电力",
	"code": 4412
}, {
	"name": "沂水县大地玉米开发有限公司(自备电厂）",
	"Longitude": 118.597183917705,
	"Latitude": 35.8462803003249,
	"economize": "山东省",
	"City": "临沂市",
	"County": "沂水县",
	"type": "电力",
	"code": 4412
}, {
	"name": "青援食品有限公司（自备电厂）",
	"Longitude": 118.622994677524,
	"Latitude": 35.8162282929424,
	"economize": "山东省",
	"City": "临沂市",
	"County": "沂水县",
	"type": "电力",
	"code": 4412
}, {
	"name": "临沂新程金锣肉制品集团有限公司（自备电厂）",
	"Longitude": 118.310662659958,
	"Latitude": 35.2518889073993,
	"economize": "山东省",
	"City": "临沂市",
	"County": "兰山区",
	"type": "电力",
	"code": "4412"
}, {
	"name": "临沂市恒源热力集团有限公司",
	"Longitude": 118.326344346142,
	"Latitude": 35.0505946146451,
	"economize": "山东省",
	"City": "临沂市",
	"County": "兰山区",
	"type": "电力",
	"code": "4412"
}, {
	"name": "临沂市泰源热力有限公司",
	"Longitude": 117.912867331544,
	"Latitude": 35.3146527579963,
	"economize": "山东省",
	"City": "临沂市",
	"County": "兰山区",
	"type": "电力",
	"code": "4412"
}, {
	"name": "临沂恒昌热电有限责任公司",
	"Longitude": 118.31939030788,
	"Latitude": 34.6182611491702,
	"economize": "山东省",
	"City": "临沂市",
	"County": "郯城县",
	"type": "电力",
	"code": "4412"
}, {
	"name": "临沂盛荣热电有限公司",
	"Longitude": 118.3569997371,
	"Latitude": 35.1048004382129,
	"economize": "山东省",
	"City": "临沂市",
	"County": "郯城县",
	"type": "电力",
	"code": "4412"
}, {
	"name": "山东恒通化工股份有限公司",
	"Longitude": 118.320362193671,
	"Latitude": 34.6233119950821,
	"economize": "山东省",
	"City": "临沂市",
	"County": "郯城县",
	"type": "电力",
	"code": 4412
}, {
	"name": "华能临沂发电有限公司",
	"Longitude": 118.329001772856,
	"Latitude": 35.0115615034637,
	"economize": "山东省",
	"City": "临沂市",
	"County": "罗庄区",
	"type": "电力",
	"code": 4412
}, {
	"name": "山东华盛江泉热电有限公司",
	"Longitude": 117.000537831473,
	"Latitude": 36.7375258360213,
	"economize": "山东省",
	"City": "临沂市",
	"County": "罗庄区",
	"type": "电力",
	"code": 4412
}, {
	"name": "山东江泉实业股份有限公司热电厂",
	"Longitude": 118.304729595608,
	"Latitude": 34.9582832068277,
	"economize": "山东省",
	"City": "临沂市",
	"County": "罗庄区",
	"type": "电力",
	"code": 4412
}, {
	"name": "临沂市阳都热电有限公司",
	"Longitude": 118.50350138407,
	"Latitude": 35.5060606837537,
	"economize": "山东省",
	"City": "临沂市",
	"County": "沂南县",
	"type": "电力",
	"code": "4412"
}, {
	"name": "金沂蒙集团有限公司",
	"Longitude": 118.587057085788,
	"Latitude": 34.9120495247997,
	"economize": "山东省",
	"City": "临沂市",
	"County": "临沭县",
	"type": "电力",
	"code": "4412"
}, {
	"name": "临沭供热服务有限公司",
	"Longitude": 118.63618451656,
	"Latitude": 34.9219400504677,
	"economize": "山东省",
	"City": "临沂市",
	"County": "临沭县",
	"type": "电力",
	"code": "4412"
}, {
	"name": "莒南裕源热电有限公司",
	"Longitude": 118.834999814844,
	"Latitude": 35.174900662813,
	"economize": "山东省",
	"City": "临沂市",
	"County": "莒南县",
	"type": "电力",
	"code": 4412
}, {
	"name": "莒南力源热电有限公司",
	"Longitude": 118.807340261454,
	"Latitude": 35.1977584040364,
	"economize": "山东省",
	"City": "临沂市",
	"County": "莒南县",
	"type": "电力",
	"code": 4412
}, {
	"name": "临沂华龙热电有限公司",
	"Longitude": 118.005276483356,
	"Latitude": 34.8627578075945,
	"economize": "山东省",
	"City": "临沂市",
	"County": "兰陵县",
	"type": "电力",
	"code": "4412"
}, {
	"name": "临沂富源热电有限公司",
	"Longitude": 118.470389858801,
	"Latitude": 34.9626142915847,
	"economize": "山东省",
	"City": "临沂市",
	"County": "经济区",
	"type": "电力",
	"code": "4412"
}, {
	"name": "\t山东易达热电科技有限公司",
	"Longitude": 117.72879851892,
	"Latitude": 35.4539087045397,
	"economize": "山东省",
	"City": "临沂市",
	"County": "平邑县",
	"type": "电力",
	"code": "4412"
}, {
	"name": "费县上源热电有限责任公司",
	"Longitude": 117.949289522255,
	"Latitude": 35.3800309280246,
	"economize": "山东省",
	"City": "临沂市",
	"County": "费县",
	"type": "电力",
	"code": "4412"
}, {
	"name": "国电费县发电有限公司",
	"Longitude": 117.912651236188,
	"Latitude": 35.3189137112769,
	"economize": "山东省",
	"City": "临沂市",
	"County": "费县",
	"type": "电力",
	"code": "4412"
}, {
	"name": "临沂市阳光热力有限公司",
	"Longitude": 118.144455643632,
	"Latitude": 35.171315025427,
	"economize": "山东省",
	"City": "临沂市",
	"County": "费县",
	"type": "电力",
	"code": "4412"
}, {
	"name": "华能国际电力股份有限公司德州电厂",
	"Longitude": 116.564926812958,
	"Latitude": 35.3994795176575,
	"economize": "山东省",
	"City": "德州市",
	"County": "德城区",
	"type": "电力",
	"code": 4412
}, {
	"name": "临邑恒利热电有限责任公司",
	"Longitude": 116.850535467278,
	"Latitude": 37.1866067954533,
	"economize": "山东省",
	"City": "德州市",
	"County": "临邑县",
	"type": "电力",
	"code": 4412
}, {
	"name": "德州华北纸业有限公司",
	"Longitude": 116.322374701668,
	"Latitude": 37.5173952106501,
	"economize": "山东省",
	"City": "德州市",
	"County": "德城区",
	"type": "电力",
	"code": 2221
}, {
	"name": "山东省武城县热电有限公司",
	"Longitude": 116.110076499711,
	"Latitude": 37.1924531922448,
	"economize": "山东省",
	"City": "德州市",
	"County": "武城县",
	"type": "电力",
	"code": 4412
}, {
	"name": "德州实华化工有限公司",
	"Longitude": 116.360802710161,
	"Latitude": 37.5108005245698,
	"economize": "山东省",
	"City": "德州市",
	"County": "德城区",
	"type": "电力",
	"code": 4412
}, {
	"name": "山东华鲁恒升化工股份有限公司",
	"Longitude": 116.26088028374,
	"Latitude": 37.464838879933,
	"economize": "山东省",
	"City": "德州市",
	"County": "德城区",
	"type": "电力",
	"code": 4412
}, {
	"name": "乐陵市乐源热电有限公司",
	"Longitude": 117.228939942852,
	"Latitude": 37.7508221638634,
	"economize": "山东省",
	"City": "德州市",
	"County": "乐陵市",
	"type": "电力",
	"code": 4412
}, {
	"name": "谷神生物科技集团有限公司(自备电厂)",
	"Longitude": 116.539872111822,
	"Latitude": 37.3544662405415,
	"economize": "山东省",
	"City": "德州市",
	"County": "陵城区",
	"type": "电力",
	"code": 4412
}, {
	"name": "山东禹王生态食业有限公司（自备电厂）",
	"Longitude": 117.000537831473,
	"Latitude": 36.7375258360213,
	"economize": "山东省",
	"City": "德州市",
	"County": "禹城市",
	"type": "电力",
	"code": 4412
}, {
	"name": "平原县王杲铺热电有限公司",
	"Longitude": 116.289040035581,
	"Latitude": 37.2302492963576,
	"economize": "山东省",
	"City": "德州市",
	"County": "平原县",
	"type": "电力",
	"code": "4412"
}, {
	"name": "德州利源纸业有限公司",
	"Longitude": 116.577274242313,
	"Latitude": 37.1957073142484,
	"economize": "山东省",
	"City": "德州市",
	"County": "平原县",
	"type": "电力",
	"code": "2221/4412"
}, {
	"name": "山东中茂圣源实业有限公司",
	"Longitude": 116.552292843012,
	"Latitude": 37.3592584895626,
	"economize": "山东省",
	"City": "德州市",
	"County": "陵城区",
	"type": "电力",
	"code": 4412
}, {
	"name": "山东江河纸业有限责任公司",
	"Longitude": 116.762178293957,
	"Latitude": 36.8089190153569,
	"economize": "山东省",
	"City": "德州市",
	"County": "齐河县",
	"type": "电力",
	"code": 2221
}, {
	"name": "山东省禹城市新园热电有限公司",
	"Longitude": 116.676806782555,
	"Latitude": 36.9303836870921,
	"economize": "山东省",
	"City": "德州市",
	"County": "禹城市",
	"type": "电力",
	"code": 4412
}, {
	"name": "庆云隆盛热电有限公司",
	"Longitude": 117.413394375921,
	"Latitude": 37.7872796488653,
	"economize": "山东省",
	"City": "德州市",
	"County": "庆云县",
	"type": "电力",
	"code": 4412
}, {
	"name": "夏津县热电有限公司",
	"Longitude": 116.002000284444,
	"Latitude": 36.9482993699445,
	"economize": "山东省",
	"City": "德州市",
	"County": "夏津县",
	"type": "电力",
	"code": 4412
}, {
	"name": "阳煤平原化工有限公司",
	"Longitude": 116.43399995978,
	"Latitude": 37.1653000636921,
	"economize": "山东省",
	"City": "德州市",
	"County": "平原县",
	"type": "电力",
	"code": "2621/4412"
}, {
	"name": "禹城市光大热电有限公司",
	"Longitude": 116.644112701445,
	"Latitude": 36.9187863052738,
	"economize": "山东省",
	"City": "德州市",
	"County": "禹城市",
	"type": "电力",
	"code": 4412
}, {
	"name": "临清市祥源热电有限公司",
	"Longitude": 115.705000078509,
	"Latitude": 36.8381993558912,
	"economize": "山东省",
	"City": "聊城市",
	"County": "临清市",
	"type": "电力",
	"code": "4412"
}, {
	"name": "冠县新瑞实业有限公司",
	"Longitude": 115.477689265893,
	"Latitude": 36.4952149613707,
	"economize": "山东省",
	"City": "聊城市",
	"County": "冠县",
	"type": "电力",
	"code": "4412"
}, {
	"name": "阳谷森泉热电有限公司",
	"Longitude": 115.763283685968,
	"Latitude": 36.122034217163,
	"economize": "山东省",
	"City": "聊城市",
	"County": "阳谷县",
	"type": "电力",
	"code": "4412"
}, {
	"name": "山东高唐热电有限公司",
	"Longitude": 116.230761141449,
	"Latitude": 36.8841137981961,
	"economize": "山东省",
	"City": "聊城市",
	"County": "高唐县",
	"type": "电力",
	"code": "4412"
}, {
	"name": "茌平齐鲁供热有限公司",
	"Longitude": 116.277970172318,
	"Latitude": 36.5952884955308,
	"economize": "山东省",
	"City": "聊城市",
	"County": "茌平县",
	"type": "电力",
	"code": "4412"
}, {
	"name": "茌平信发华宇氧化铝有限公司",
	"Longitude": 116.195860526472,
	"Latitude": 36.588561989768,
	"economize": "山东省",
	"City": "聊城市",
	"County": "茌平县",
	"type": "电力",
	"code": "4412"
}, {
	"name": "聊城信源集团有限公司",
	"Longitude": 116.217158866622,
	"Latitude": 36.6095975181101,
	"economize": "山东省",
	"City": "聊城市",
	"County": "茌平县",
	"type": "电力",
	"code": "4412"
}, {
	"name": "山东泉林集团热电有限公司",
	"Longitude": 117.505860287446,
	"Latitude": 35.6277792971137,
	"economize": "山东省",
	"City": "聊城市",
	"County": "高唐县",
	"type": "电力",
	"code": "4412"
}, {
	"name": "华能聊城热电有限公司",
	"Longitude": 115.914562497758,
	"Latitude": 36.4601143296425,
	"economize": "山东省",
	"City": "聊城市",
	"County": "东昌府区",
	"type": "电力",
	"code": "4412"
}, {
	"name": "山东时风（集团）有限责任公司热电中心",
	"Longitude": 117.000537831473,
	"Latitude": 36.7375258360213,
	"economize": "山东省",
	"City": "聊城市",
	"County": "高唐县",
	"type": "电力",
	"code": "4412"
}, {
	"name": "聊城蓝天热电有限公司",
	"Longitude": 116.060518251404,
	"Latitude": 36.4726506343413,
	"economize": "山东省",
	"City": "聊城市",
	"County": "经开区",
	"type": "电力",
	"code": "4412"
}, {
	"name": "山东省莘县森源实业有限公司",
	"Longitude": 115.357941585256,
	"Latitude": 35.8157605667622,
	"economize": "山东省",
	"City": "聊城市",
	"County": "莘县",
	"type": "电力",
	"code": "4412"
}, {
	"name": "东阿华通热电有限公司",
	"Longitude": 116.247999961152,
	"Latitude": 36.3350000563224,
	"economize": "山东省",
	"City": "聊城市",
	"County": "东阿县",
	"type": "电力",
	"code": "4412"
}, {
	"name": "鲁西化工集团股份有限公司动力分公司",
	"Longitude": 117.161289580188,
	"Latitude": 35.2876951489089,
	"economize": "山东省",
	"City": "聊城市",
	"County": "高新区",
	"type": "电力",
	"code": "4412"
}, {
	"name": "国家能源聊城发电有限公司",
	"Longitude": 115.832740506472,
	"Latitude": 36.4858670865687,
	"economize": "山东省",
	"City": "聊城市",
	"County": "东昌府区",
	"type": "电力",
	"code": "4412"
}, {
	"name": "山东中华发电有限公司聊城发电厂",
	"Longitude": 117.000537831473,
	"Latitude": 36.7375258360213,
	"economize": "山东省",
	"City": "聊城市",
	"County": "东昌府区",
	"type": "电力",
	"code": "4411"
}, {
	"name": "冠县恒润热电有限公司",
	"Longitude": 115.49038005685,
	"Latitude": 36.481371827399,
	"economize": "山东省",
	"City": "聊城市",
	"County": "冠县",
	"type": "电力",
	"code": "4412"
}, {
	"name": "临清运河热电有限责任公司",
	"Longitude": 115.740838596726,
	"Latitude": 36.8539401568994,
	"economize": "山东省",
	"City": "聊城市",
	"County": "临清市",
	"type": "电力",
	"code": "4412"
}, {
	"name": "大唐临清热电有限公司",
	"Longitude": 115.778177617435,
	"Latitude": 36.8757983588717,
	"economize": "山东省",
	"City": "聊城市",
	"County": "临清市",
	"type": "电力",
	"code": "4412"
}, {
	"name": "滨州市北海信和新材料有限公司",
	"Longitude": 117.99047917005,
	"Latitude": 38.0190001307537,
	"economize": "山东省",
	"City": "滨州市",
	"County": "北海经济开发区",
	"type": "电力",
	"code": 4412
}, {
	"name": "滨州市沾化区汇宏新材料有限公司",
	"Longitude": 118.076247124963,
	"Latitude": 38.0880065110008,
	"economize": "山东省",
	"City": "滨州市",
	"County": "沾化区",
	"type": "电力",
	"code": 4412
}, {
	"name": "邹平县汇能热电有限公司",
	"Longitude": 117.871556073976,
	"Latitude": 36.8951104376728,
	"economize": "山东省",
	"City": "滨州市",
	"County": "邹平县",
	"type": "电力",
	"code": 4412
}, {
	"name": "山东滨北新材料有限公司",
	"Longitude": 117.989299717718,
	"Latitude": 37.4686202916135,
	"economize": "山东省",
	"City": "滨州市",
	"County": "邹平县",
	"type": "电力",
	"code": 4412
}, {
	"name": "滨州金安热电有限公司",
	"Longitude": 117.990829916181,
	"Latitude": 37.485280340271,
	"economize": "山东省",
	"City": "滨州市",
	"County": "滨城区",
	"type": "电力",
	"code": 4412
}, {
	"name": "山东滨州滨北热电有限公司",
	"Longitude": 117.996696436719,
	"Latitude": 37.4774879478651,
	"economize": "山东省",
	"City": "滨州市",
	"County": "滨城区",
	"type": "电力",
	"code": 4412
}, {
	"name": "滨州东力热电有限公司",
	"Longitude": 118.088090165636,
	"Latitude": 37.2965419986972,
	"economize": "山东省",
	"City": "滨州市",
	"County": "高新技术产业开发区",
	"type": "电力",
	"code": 4412
}, {
	"name": "山东京博控股集团有限公司恒丰分公司",
	"Longitude": 118.215695201885,
	"Latitude": 37.1889526918873,
	"economize": "山东省",
	"City": "滨州市",
	"County": "博兴县",
	"type": "电力",
	"code": 4412
}, {
	"name": "山东盛和热能有限公司",
	"Longitude": 118.133599648223,
	"Latitude": 37.159160431596,
	"economize": "山东省",
	"City": "滨州市",
	"County": "博兴县",
	"type": "电力",
	"code": 4412
}, {
	"name": "香驰控股有限公司热动分公司",
	"Longitude": 120.305809766761,
	"Latitude": 37.6751475033378,
	"economize": "山东省",
	"City": "滨州市",
	"County": "博兴县",
	"type": "电力",
	"code": 4412
}, {
	"name": "华能沾化热电有限公司",
	"Longitude": 118.121779929803,
	"Latitude": 37.6888450399336,
	"economize": "山东省",
	"City": "滨州市",
	"County": "沾化区",
	"type": "电力",
	"code": 4412
}, {
	"name": "无棣县新星热电有限责任公司",
	"Longitude": 117.637722606959,
	"Latitude": 37.7362298226058,
	"economize": "山东省",
	"City": "滨州市",
	"County": "无棣县",
	"type": "电力",
	"code": 4412
}, {
	"name": "无棣众诚供热有限公司",
	"Longitude": 117.626000270406,
	"Latitude": 37.7714992706067,
	"economize": "山东省",
	"City": "滨州市",
	"County": "无棣县",
	"type": "电力",
	"code": 4412
}, {
	"name": "大唐鲁北发电有限责任公司",
	"Longitude": 120.029521218327,
	"Latitude": 36.2701753071626,
	"economize": "山东省",
	"City": "滨州市",
	"County": "无棣县",
	"type": "电力",
	"code": 4412
}, {
	"name": "滨州高新铝电股份有限公司",
	"Longitude": 117.769110395684,
	"Latitude": 36.901274755579,
	"economize": "山东省",
	"City": "滨州市",
	"County": "邹平县",
	"type": "电力",
	"code": 4412
}, {
	"name": "邹平顶峰热电有限公司",
	"Longitude": 117.705540400991,
	"Latitude": 36.9470730054172,
	"economize": "山东省",
	"City": "滨州市",
	"County": "邹平县",
	"type": "电力",
	"code": 4412
}, {
	"name": "大唐滨州发电有限公司",
	"Longitude": 117.971000564185,
	"Latitude": 37.3818991079685,
	"economize": "山东省",
	"City": "滨州市",
	"County": "滨城区",
	"type": "电力",
	"code": 4412
}, {
	"name": "邹平县宏利热电有限公司",
	"Longitude": 117.743000073935,
	"Latitude": 36.8638995729568,
	"economize": "山东省",
	"City": "滨州市",
	"County": "邹平县",
	"type": "电力",
	"code": 4412
}, {
	"name": "邹平县宏旭热电有限公司",
	"Longitude": 117.743000073935,
	"Latitude": 36.8638995729568,
	"economize": "山东省",
	"City": "滨州市",
	"County": "邹平县",
	"type": "电力",
	"code": 4412
}, {
	"name": "山东国旭新能源有限公司（原邹平县宏创热电有限公司）",
	"Longitude": 117.77717835089,
	"Latitude": 36.8897365796619,
	"economize": "山东省",
	"City": "滨州市",
	"County": "邹平县",
	"type": "电力",
	"code": 4412
}, {
	"name": "黄河三角洲（滨州）热力有限公司",
	"Longitude": 118.772075909045,
	"Latitude": 37.4209827713583,
	"economize": "山东省",
	"City": "滨州市",
	"County": "滨城区",
	"type": "电力",
	"code": 4412
}, {
	"name": "邹平昌桥供热有限公司",
	"Longitude": 117.743000073935,
	"Latitude": 36.8638995729568,
	"economize": "山东省",
	"City": "滨州市",
	"County": "邹平县",
	"type": "电力",
	"code": 4412
}, {
	"name": "邹平县电力集团有限公司",
	"Longitude": 117.737161375699,
	"Latitude": 36.8846281920162,
	"economize": "山东省",
	"City": "滨州市",
	"County": "邹平县",
	"type": "电力",
	"code": 4412
}, {
	"name": "金盛海洋科技有限公司",
	"Longitude": 120.507283968912,
	"Latitude": 36.4867757315792,
	"economize": "山东省",
	"City": "滨州市",
	"County": "北海经济开发区",
	"type": "电力",
	"code": 4412
}, {
	"name": "山东炜烨热电有限公司",
	"Longitude": 118.171346081448,
	"Latitude": 37.7044198020358,
	"economize": "山东省",
	"City": "滨州市",
	"County": "沾化区",
	"type": "电力",
	"code": 4412
}, {
	"name": "滨州绿动热电有限公司",
	"Longitude": 117.971000564185,
	"Latitude": 37.3818991079685,
	"economize": "山东省",
	"City": "滨州市",
	"County": "经济技术开发区",
	"type": "电力",
	"code": 4412
}, {
	"name": "滨州绿丰热电有限公司",
	"Longitude": 117.971000564185,
	"Latitude": 37.3818991079685,
	"economize": "山东省",
	"City": "滨州市",
	"County": "北海经济开发区",
	"type": "电力",
	"code": 4412
}, {
	"name": "滨州绿能热电有限公司",
	"Longitude": 117.781354405705,
	"Latitude": 37.3495125208193,
	"economize": "山东省",
	"City": "滨州市",
	"County": "惠民县",
	"type": "电力",
	"code": 4412
}, {
	"name": "滨州绿通热电有限公司",
	"Longitude": 117.971000564185,
	"Latitude": 37.3818991079685,
	"economize": "山东省",
	"City": "滨州市",
	"County": "阳信县",
	"type": "电力",
	"code": 4412
}, {
	"name": "华纺股份有限公司",
	"Longitude": 118.062586897713,
	"Latitude": 37.3737599545341,
	"economize": "山东省",
	"City": "滨州市",
	"County": "滨城区",
	"type": "电力",
	"code": 4412
}, {
	"name": "山东无棣齐星高科技铝材有限公司",
	"Longitude": 117.726099119779,
	"Latitude": 38.0656304745755,
	"economize": "山东省",
	"City": "滨州市",
	"County": "无棣县",
	"type": "电力",
	"code": 4412
}, {
	"name": "山东东明石化集团有限公司",
	"Longitude": 115.128745898312,
	"Latitude": 35.2965593954269,
	"economize": "山东省",
	"City": "菏泽市",
	"County": "东明县",
	"type": "电力",
	"code": 4412
}, {
	"name": "华润电力（菏泽）有限公司",
	"Longitude": 115.696332515065,
	"Latitude": 35.2547362598191,
	"economize": "山东省",
	"City": "菏泽市",
	"County": "牡丹区",
	"type": "电力",
	"code": 4412
}, {
	"name": "成武金安热电有限公司",
	"Longitude": 115.91900531979,
	"Latitude": 34.9558893993373,
	"economize": "山东",
	"City": "菏泽市",
	"County": "成武县",
	"type": "电力",
	"code": 4412
}, {
	"name": "山东恒顺供热有限公司",
	"Longitude": 117.000537831473,
	"Latitude": 36.7375258360213,
	"economize": "山东省",
	"City": "菏泽市",
	"County": "东明县",
	"type": "电力",
	"code": 4412
}, {
	"name": "山东恒力供热有限公司",
	"Longitude": 117.000537831473,
	"Latitude": 36.7375258360213,
	"economize": "山东省",
	"City": "菏泽市",
	"County": "东明县",
	"type": "电力",
	"code": 4412
}, {
	"name": "山东菏泽发电厂",
	"Longitude": 115.538527199329,
	"Latitude": 35.246571029052,
	"economize": "山东省",
	"City": "菏泽市",
	"County": "开发区",
	"type": "电力",
	"code": 4412
}, {
	"name": "国家能源菏泽发电有限公司",
	"Longitude": 115.538527199329,
	"Latitude": 35.246571029052,
	"economize": "山东省",
	"City": "菏泽市",
	"County": "开发区",
	"type": "电力",
	"code": 4412
}, {
	"name": "山东中华发电有限公司菏泽发电厂",
	"Longitude": 117.000537831473,
	"Latitude": 36.7375258360213,
	"economize": "山东省",
	"City": "菏泽市",
	"County": "开发区",
	"type": "电力",
	"code": 4411
}, {
	"name": "菏泽民生热力有限公司",
	"Longitude": 115.33603639407,
	"Latitude": 35.2475937617285,
	"economize": "山东省",
	"City": "菏泽市",
	"County": "鲁西新区",
	"type": "电力",
	"code": 4412
}, {
	"name": "兖煤菏泽能化有限公司赵楼综合利用电厂",
	"Longitude": 115.961375914545,
	"Latitude": 35.3873646634886,
	"economize": "山东省",
	"City": "菏泽市",
	"County": "郓城县",
	"type": "电力",
	"code": 4412
}, {
	"name": "郓城金河热电有限责任公司",
	"Longitude": 115.974266216291,
	"Latitude": 35.586628566972,
	"economize": "山东省",
	"City": "菏泽市",
	"County": "郓城县",
	"type": "电力",
	"code": 4412
}, {
	"name": "菏泽润鑫热力有限公司",
	"Longitude": 115.628893068134,
	"Latitude": 35.0520836435117,
	"economize": "山东",
	"City": "菏泽市",
	"County": "定陶",
	"type": "电力",
	"code": 4412
}, {
	"name": "曹县百通宏达热力有限公司",
	"Longitude": 115.53702029229,
	"Latitude": 34.8871924416776,
	"economize": "山东",
	"City": "菏泽市",
	"County": "曹县",
	"type": "电力",
	"code": 4412
}, {
	"name": "单县广舜热力有限公司",
	"Longitude": 116.140213277865,
	"Latitude": 34.8035720666691,
	"economize": "山东省",
	"City": "菏泽市",
	"County": "单县",
	"type": "电力",
	"code": 4412
}, {
	"name": "东明前海热力有限公司",
	"Longitude": 115.140985684016,
	"Latitude": 35.3449602132033,
	"economize": "山东省",
	"City": "菏泽市",
	"County": "东明县",
	"type": "电力",
	"code": 4412
}, {
	"name": "淄博鑫胜热电有限公司",
	"Longitude": 117.945729997263,
	"Latitude": 36.6546769784667,
	"economize": "山东省",
	"City": "淄博市",
	"County": "淄川区",
	"type": "电力",
	"code": 4412
}, {
	"name": "淄博坤升热电有限公司",
	"Longitude": 117.995850892587,
	"Latitude": 36.6307943574816,
	"economize": "山东省",
	"City": "淄博市",
	"County": "淄川区",
	"type": "电力",
	"code": 4412
}, {
	"name": "淄博鲁中水泥有限公司",
	"Longitude": 118.094184821426,
	"Latitude": 36.7002090110259,
	"economize": "山东省",
	"City": "淄博市",
	"County": "淄川区",
	"type": "电力",
	"code": 4412
}, {
	"name": "鲁维制药集团有限公司",
	"Longitude": 117.996707093775,
	"Latitude": 36.6708941864673,
	"economize": "山东省",
	"City": "淄博市",
	"County": "淄川区",
	"type": "电力",
	"code": 4412
}, {
	"name": "华能山东发电有限公司白杨河发电厂",
	"Longitude": 117.09669320381,
	"Latitude": 36.7126435471132,
	"economize": "山东省",
	"City": "淄博市",
	"County": "博山区",
	"type": "电力",
	"code": 4412
}, {
	"name": "淄博市博山开发区热电厂有限公司",
	"Longitude": 117.842319585698,
	"Latitude": 36.5397344544577,
	"economize": "山东省",
	"City": "淄博市",
	"County": "博山区",
	"type": "电力",
	"code": "4412"
}, {
	"name": "淄博旭能热电有限公司",
	"Longitude": 117.841909117762,
	"Latitude": 36.816093797312,
	"economize": "山东省",
	"City": "淄博市",
	"County": "周村区",
	"type": "电力",
	"code": "4412"
}, {
	"name": "山东淄博瑞光热电有限公司",
	"Longitude": 117.851021838706,
	"Latitude": 36.8347201592082,
	"economize": "山东省",
	"City": "淄博市",
	"County": "周村区",
	"type": "电力",
	"code": "4412"
}, {
	"name": "淄博明瑞热电有限公司",
	"Longitude": 118.14761008356,
	"Latitude": 36.7685649622788,
	"economize": "山东省",
	"City": "淄博市",
	"County": "临淄区",
	"type": "电力",
	"code": "4412"
}, {
	"name": "华能辛店发电有限公司",
	"Longitude": 118.318759926212,
	"Latitude": 36.8068700610693,
	"economize": "山东省",
	"City": "淄博市",
	"County": "临淄区",
	"type": "电力",
	"code": "4412"
}, {
	"name": "淄博市临淄热电厂有限公司",
	"Longitude": 118.227715123345,
	"Latitude": 36.8000650471394,
	"economize": "山东省",
	"City": "淄博市",
	"County": "临淄区",
	"type": "电力",
	"code": "4412"
}, {
	"name": "淄博市临淄区朱台热力有限公司",
	"Longitude": 118.260350049977,
	"Latitude": 36.9398398830969,
	"economize": "山东省",
	"City": "淄博市",
	"County": "临淄区",
	"type": "电力",
	"code": "4412"
}, {
	"name": "淄博齐翔腾达化工股份有限公司",
	"Longitude": 118.289468929737,
	"Latitude": 36.8241626649162,
	"economize": "山东省",
	"City": "淄博市",
	"County": "临淄区",
	"type": "电力",
	"code": "4412"
}, {
	"name": "中国石油化工股份有限公司齐鲁分公司",
	"Longitude": 117.166599340798,
	"Latitude": 36.718659996107,
	"economize": "山东省",
	"City": "淄博市",
	"County": "临淄区",
	"type": "电力",
	"code": "4412"
}, {
	"name": "阳煤集团淄博齐鲁第一化肥有限公司",
	"Longitude": 118.253245302247,
	"Latitude": 36.7488544137335,
	"economize": "山东省",
	"City": "淄博市",
	"County": "临淄区",
	"type": "电力",
	"code": "4412"
}, {
	"name": "山东天源热电有限公司",
	"Longitude": 117.000537831473,
	"Latitude": 36.7375258360213,
	"economize": "山东省",
	"City": "淄博市",
	"County": "桓台县",
	"type": "电力",
	"code": 4412
}, {
	"name": "淄博齐林贵和热电有限公司",
	"Longitude": 118.085638425138,
	"Latitude": 37.0091774915576,
	"economize": "山东省",
	"City": "淄博市",
	"County": "桓台县",
	"type": "电力",
	"code": 4412
}, {
	"name": "山东东岳氟硅材料有限公司",
	"Longitude": 118.036732446143,
	"Latitude": 36.9831507113445,
	"economize": "山东省",
	"City": "淄博市",
	"County": "桓台县",
	"type": "电力",
	"code": 4412
}, {
	"name": "淄博惠润热力有限公司",
	"Longitude": 118.032036803208,
	"Latitude": 36.8067220457472,
	"economize": "山东省",
	"City": "淄博市",
	"County": "桓台县",
	"type": "电力",
	"code": "4412"
}, {
	"name": "桓台县唐山热电有限公司",
	"Longitude": 118.046764021703,
	"Latitude": 36.9780761591674,
	"economize": "山东省",
	"City": "淄博市",
	"County": "桓台县",
	"type": "电力",
	"code": "4412"
}, {
	"name": "淄博联昱印染科技有限公司",
	"Longitude": 118.054999698002,
	"Latitude": 36.813000745543,
	"economize": "山东省",
	"City": "淄博市",
	"County": "高青县",
	"type": "电力",
	"code": "4412"
}, {
	"name": "山东虹桥热电股份有限公司",
	"Longitude": 116.447653366672,
	"Latitude": 35.9431754981663,
	"economize": "山东省",
	"City": "淄博市",
	"County": "高青县",
	"type": "电力",
	"code": "4412"
}, {
	"name": "沂源县源能热电有限公司",
	"Longitude": 118.186757979242,
	"Latitude": 36.1804959171883,
	"economize": "山东省",
	"City": "淄博市",
	"County": "沂源县",
	"type": "电力",
	"code": 4412
}, {
	"name": "沂源县源能热力有限公司",
	"Longitude": 118.266197814347,
	"Latitude": 36.181997252226,
	"economize": "山东省",
	"City": "淄博市",
	"County": "沂源县",
	"type": "电力",
	"code": 4412
}, {
	"name": "淄博热电集团有限公司",
	"Longitude": 118.098137617677,
	"Latitude": 36.7934420009041,
	"economize": "山东省",
	"City": "淄博市",
	"County": "高新区",
	"type": "电力",
	"code": "4412"
}, {
	"name": "山东淄博傅山热电有限公司",
	"Longitude": 118.136191323495,
	"Latitude": 36.8862312529428,
	"economize": "山东省",
	"City": "淄博市",
	"County": "高新区",
	"type": "电力",
	"code": "4412"
}, {
	"name": "山东开泰石化股份有限公司",
	"Longitude": 117.000537831473,
	"Latitude": 36.7375258360213,
	"economize": "山东省",
	"City": "淄博市",
	"County": "高新区",
	"type": "电力",
	"code": 4412
}, {
	"name": "淄博宏达热电有限公司",
	"Longitude": 118.202018056015,
	"Latitude": 36.868757783989,
	"economize": "山东省",
	"City": "淄博市",
	"County": "高新区",
	"type": "电力",
	"code": "4412"
}, {
	"name": "华电淄博热电有限公司",
	"Longitude": 118.052218783641,
	"Latitude": 36.7608637324467,
	"economize": "山东省",
	"City": "淄博市",
	"County": "经开区",
	"type": "电力",
	"code": 4412
}, {
	"name": "中铝山东有限公司",
	"Longitude": 119.087181785772,
	"Latitude": 37.1425594837006,
	"economize": "山东省",
	"City": "淄博市",
	"County": "经开区",
	"type": "电力",
	"code": 4412
}]